%time,field.header.seq,field.header.stamp,field.header.frame_id,field.position0,field.position1,field.position2,field.position3,field.position4,field.position5,field.position6
1694611681636818051,29,0,,-0.0013206188381883692,-0.7871276526919336,0.0013106406666076335,-2.3440425305817065,0.0028263439997570404,1.573256361921191,0.7732333800379482
1694611681647652599,30,0,,-0.0014187480857210614,-0.7871559003514257,0.0013304184595403492,-2.343539596783458,0.0028966445436914754,1.5730291721644976,0.7731665899222463
1694611681658527920,31,0,,-0.0015174433264506842,-0.787177757605391,0.0013609354402070036,-2.343027497232119,0.002940964029902144,1.5728097660046736,0.7731142631907563
1694611681668646854,32,0,,-0.0016148219060943775,-0.7871950519038798,0.0013897896051672063,-2.342565098866387,0.0029680493069350208,1.5726358579054027,0.7730960787256125
1694611681680015819,33,0,,-0.0017338627418763592,-0.7872113899949637,0.0014420914174261296,-2.3420826188855095,0.0030324711334680098,1.5724116158031907,0.7730455212998831
1694611681690777647,34,0,,-0.0018805299504207468,-0.7872326191080308,0.0015268912039775803,-2.341596352249971,0.003113993121588156,1.572196135664731,0.7729511477791126
1694611681701327287,35,0,,-0.0020344932411528426,-0.7872640663380112,0.0016206152195053993,-2.3410937907664815,0.0031996270622686833,1.5720052873610193,0.7728607565171249
1694611681711576745,36,0,,-0.0021985023932453614,-0.787295913042826,0.001729861397882656,-2.340667268849738,0.0032899353282995246,1.5718268986585404,0.7727728929496747
1694611681722543186,37,0,,-0.0024128452692996527,-0.7873306595446646,0.0018554236205280989,-2.340192007118256,0.003403193649895387,1.5716237739218057,0.7726677899949188
1694611681733692878,38,0,,-0.002656616768068117,-0.7873556126497104,0.0019942377510783547,-2.3397089994296167,0.003522976585265132,1.5714207738583736,0.7725483551980382
1694611681744607224,39,0,,-0.0029423147007832068,-0.7873742301259922,0.0021591615698598843,-2.3392088706667757,0.0036525949484409134,1.571239111544719,0.7724246536188064
1694611681755334051,40,0,,-0.00328782580684556,-0.7873848997408318,0.0023301702716133498,-2.3387307163734548,0.00379073488197043,1.5710773717993523,0.7722717400869854
1694611681765437586,41,0,,-0.003652926776742449,-0.7873970349845246,0.002497866594723819,-2.338304079349049,0.003942469399524032,1.5709325802778946,0.7721279851959855
1694611681775728397,42,0,,-0.004082654478086103,-0.7874147018082345,0.002688811326746284,-2.3378689875617535,0.004111218436439908,1.57078553374608,0.7719254535237238
1694611681785654322,43,0,,-0.0045346415503826525,-0.7874326567977511,0.0029108931004831707,-2.3374531939127476,0.0043016993640842445,1.5706497705201825,0.7717001009199324
1694611681796630006,44,0,,-0.005027591856223295,-0.7874481868002285,0.003152916754271041,-2.3370583013465738,0.004516655943173425,1.5705242285713479,0.7714768777875425
1694611681807761818,45,0,,-0.005666330948341022,-0.7874621932016245,0.0034747943908785004,-2.336596189697319,0.004800935489085985,1.5703759110814253,0.7711673930681328
1694611681817430613,46,0,,-0.006233585450639002,-0.7874811958029906,0.0037938953919313834,-2.336225911494718,0.00506444240414918,1.5702618135982718,0.7708752643938979
1694611681828511361,47,0,,-0.006901324888588186,-0.7874963539963388,0.004167977517497233,-2.3358441036930424,0.0054020406705421005,1.5701514796969243,0.7705261997949594
1694611681838830460,48,0,,-0.007557046759116632,-0.7874974095551134,0.004555198058964141,-2.3355066915335017,0.005745297847738661,1.5700498891184245,0.7701785784607376
1694611681848790731,49,0,,-0.008255343583110131,-0.7874971668886823,0.004982766848099726,-2.335185612067064,0.006132958394932875,1.5699613668509238,0.7697966139826714
1694611681859367180,50,0,,-0.009087918874091288,-0.7874971668845727,0.005493298250646417,-2.3348405883161196,0.0065811686697657135,1.5698519853728263,0.769338307060574
1694611681870894080,51,0,,-0.009951763731187203,-0.7874994446398463,0.006038521342531364,-2.3345108374484127,0.007046315571512204,1.569784891064374,0.7688340947396842
1694611681881542706,52,0,,-0.010898308455106942,-0.7874971639943551,0.006629476058856561,-2.3342086142242486,0.007551167650318202,1.5697461190813868,0.7682716212452432
1694611681892558451,53,0,,-0.011925402860882828,-0.787488718249672,0.0072509720692261375,-2.3339265462209444,0.008082807238261597,1.5697229224121414,0.7677043319174242
1694611681902977605,54,0,,-0.012921461656775655,-0.7874909854670614,0.007871432587331242,-2.333673779835902,0.008591725168039325,1.569700965843309,0.7671548322831074
1694611681913778751,55,0,,-0.014102125448755637,-0.7874908189658473,0.008589155538700108,-2.3334048317674405,0.009171405413844425,1.5696840091755657,0.7665341423467101
1694611681923795510,56,0,,-0.015211270601160376,-0.787490115927481,0.00926758272321763,-2.3331654366857855,0.00975333602619483,1.5696823743111719,0.765916319446946
1694611681933786722,57,0,,-0.01638801727340674,-0.7874816660040853,0.00997301440419615,-2.332914493157076,0.010360283686283998,1.569678942771351,0.7652508370272885
1694611681943520813,58,0,,-0.0176433667255972,-0.7874731170219805,0.010723515834377714,-2.33269009006435,0.010974926112765255,1.5696784140326794,0.7645000469942098
1694611681954544814,59,0,,-0.019073853805006324,-0.7874642498304848,0.01157598973809025,-2.3324628162352883,0.011637904197650201,1.569678904756999,0.7636416608457279
1694611681964766604,60,0,,-0.02043800136351956,-0.7874506130909625,0.012388241288956544,-2.3322559961946,0.012298523746195451,1.569677690691598,0.7628545498814245
1694611681974790011,61,0,,-0.02185279777729729,-0.787422781363265,0.013239100157657365,-2.3320486694973233,0.013022077994061583,1.5696852947440776,0.7620141386583453
1694611681984638317,62,0,,-0.023310025629391527,-0.7873930054736418,0.01411913178129659,-2.3318571415965743,0.01380419352761635,1.5696978742255074,0.7611450332397582
1694611681995706868,63,0,,-0.024999542381794693,-0.787351483888929,0.015151433442015453,-2.3316550165059247,0.014644109922996274,1.5697361356244557,0.7601862521230641
1694611682006589054,64,0,,-0.026788377233353547,-0.7872909574548694,0.01622495299919561,-2.3314526411361363,0.015535076916204073,1.5698150345632642,0.7591502202308168
1694611682016477310,65,0,,-0.028483039056301174,-0.7872311755656233,0.017245651387142107,-2.331268380045478,0.016399060324817555,1.5699152038084232,0.7581315384930702
1694611682026735756,66,0,,-0.03024392235590196,-0.7871826157802314,0.018331335582842796,-2.331098837470702,0.017268181034916175,1.5700344622802742,0.7570721947830474
1694611682037304534,67,0,,-0.0322487967267238,-0.7870953178790638,0.019578457165969287,-2.330925442350409,0.018251161771246322,1.570171099666902,0.7559169589670457
1694611682047832947,68,0,,-0.03413303294734849,-0.787014692985398,0.020714076429880553,-2.3307770755577617,0.01912910831070827,1.5703172416377673,0.7548550793626735
1694611682058658022,69,0,,-0.03629235416958337,-0.786922374870686,0.022010577973288314,-2.3306142817759388,0.02019351427207605,1.5704874115604073,0.7536912491973903
1694611682068536721,70,0,,-0.03831630387615551,-0.786834383119335,0.023223091296328022,-2.3304879562178065,0.02119128537941671,1.5706643623027012,0.7526333682272502
1694611682079797967,71,0,,-0.0406123092197208,-0.786741991606152,0.0245938209550152,-2.330358942343173,0.022277771134347917,1.5708815440036328,0.7512936194861004
1694611682089888489,72,0,,-0.04278527382110499,-0.7866525977683052,0.02585874787983228,-2.3302468231255284,0.02336319717226204,1.5710915568042114,0.7500030103316132
1694611682100773898,73,0,,-0.045301450127538244,-0.7865510051526403,0.02732253420267686,-2.330131491666215,0.024531244390729852,1.5713511023138584,0.7485159160467576
1694611682110822324,74,0,,-0.04763715703369536,-0.7864633550520731,0.02869188813234755,-2.3300217482797643,0.025604679180076317,1.571597510559137,0.747184412408391
1694611682121730207,75,0,,-0.049305350904236434,-0.7863969105330598,0.029665046048737383,-2.3299550963555284,0.026380286296361424,1.5718009088072389,0.7462930643415638
1694611682131959210,76,0,,-0.05272204751187755,-0.7862778880157064,0.03167053888007357,-2.329816875013802,0.02805474203132691,1.5722045259037423,0.7443427965024474
1694611682142534611,77,0,,-0.05546222706590123,-0.7861911400833966,0.03331561788235716,-2.3297158030043184,0.029376705168736774,1.572524821218985,0.742675298271421
1694611682153332834,78,0,,-0.058335670125608204,-0.7860943025895927,0.03499636278356643,-2.329613776243837,0.03080397952313909,1.572885213382797,0.7409760473207414
1694611682164371838,79,0,,-0.06130484574190654,-0.7860081539749476,0.036739157511146835,-2.329538743693967,0.03219936583052714,1.5732584872111626,0.7393253354501882
1694611682175352025,80,0,,-0.06431271048684518,-0.7859242440617966,0.0385026021222114,-2.329468837639344,0.03366868708563648,1.5736834479430382,0.7375613376833522
1694611682185346085,81,0,,-0.06712722009348922,-0.7858389733238147,0.04015743660750712,-2.329428997700531,0.03502687852994432,1.574084017333683,0.7358932331580855
1694611682195662093,82,0,,-0.07002692263995103,-0.7857463902259618,0.04185775385037252,-2.329403403347075,0.03644108734346408,1.5745080799831488,0.7342159203384219
1694611682206916089,83,0,,-0.07330253160131044,-0.7856516255162194,0.043749167918494626,-2.329399993653048,0.03803091948154134,1.5750034645995536,0.7324373491491161
1694611682217606787,84,0,,-0.07662939488885327,-0.7855500591187626,0.04571603864255686,-2.3294053796938545,0.0395720236318635,1.5755176206010173,0.7305499805753679
1694611682228186410,85,0,,-0.08001307246001606,-0.7854453239417376,0.047747657070812584,-2.329410937152581,0.0411798275013332,1.576029363338668,0.728491498787819
1694611682238392545,86,0,,-0.08315223663832139,-0.7853412910207104,0.04965084923367283,-2.3294116790057604,0.04269528757183944,1.5765089768240028,0.72660571879744
1694611682249680878,87,0,,-0.08670832318331763,-0.785232333709166,0.05177677905682161,-2.3294056506021725,0.04438755655103907,1.5770596477496597,0.724512150017331
1694611682259468692,88,0,,-0.09004100253032273,-0.785127897908333,0.05373842980464625,-2.3294067599960364,0.04594133290306205,1.5775749245229291,0.7225246328803491
1694611682269775447,89,0,,-0.09345010555827694,-0.785027830771481,0.05571976527271934,-2.3294095440745832,0.04757946608941204,1.5781346636631184,0.7205410133782316
1694611682280654435,90,0,,-0.09730796879325984,-0.7849075256134922,0.05792711493045108,-2.3294144870342426,0.04940486116447397,1.5787771873429615,0.7183425079802791
1694611682291603613,91,0,,-0.10123536674170566,-0.7847856147405198,0.06012689995829968,-2.3294142751203752,0.05124652937171128,1.5794196579854627,0.716035812149482
1694611682302577540,92,0,,-0.10377008878378188,-0.7847085183988414,0.06153122005584964,-2.32940611892958,0.05240286525235186,1.579834129372542,0.7145506676243738
1694611682312794054,93,0,,-0.10888118348669168,-0.7845520779624812,0.06446262311546468,-2.3294028728113054,0.05484326084105416,1.5806374804230363,0.7117247459328038
1694611682323453546,94,0,,-0.1129868779527407,-0.7844249084837356,0.06683835219933262,-2.3294109372591243,0.05688758583436938,1.5813230216589278,0.7093373563833593
1694611682334378628,95,0,,-0.11718670899201747,-0.7843079785200133,0.06924974132370726,-2.3294078381849688,0.058846760995865874,1.582051353224812,0.706908186848926
1694611682344513843,96,0,,-0.12104671966132378,-0.7842001329892172,0.07148981144776828,-2.3293991652365276,0.0606077578047144,1.582702360598492,0.7047226490854268
1694611682355939111,97,0,,-0.12538521157336108,-0.7840713151092585,0.0740088230773562,-2.32938214938429,0.06257771372460817,1.5834133626209148,0.7021165863748846
1694611682366618714,98,0,,-0.12976484237222405,-0.78393132753896,0.07652270501413053,-2.3293235425919554,0.06457383601943709,1.5841421740604826,0.6995530072126084
1694611682376738746,99,0,,-0.13378253206307236,-0.7838024917224035,0.07882363189357416,-2.3292548450584873,0.06645141765530681,1.5848315635261385,0.6971867579564569
1694611682387333010,100,0,,-0.1382953594756651,-0.7836674806802428,0.08143852805674841,-2.3291605739188217,0.06862962291759007,1.5856208174613393,0.6945714415234471
1694611682398369131,101,0,,-0.14289936308006676,-0.7835319241330992,0.084065107315794,-2.329045176841557,0.0707990966019948,1.5864331543056005,0.6920476423551607
1694611682408484213,102,0,,-0.14717992068812463,-0.783415180984158,0.08646259275806,-2.328922592969189,0.07272185044082108,1.5871662411298868,0.6895847944239124
1694611682420071894,103,0,,-0.15199681923545205,-0.7832868084493123,0.08909806191913897,-2.3287896326032143,0.07487167419114003,1.5879740426336417,0.6868153351217612
1694611682429771621,104,0,,-0.15638721949708062,-0.7831555522696094,0.09153398308310204,-2.3286715154175264,0.07689816060678141,1.5887171186485818,0.6842856307237569
1694611682440654410,105,0,,-0.16120856348105292,-0.7830219898992985,0.09427636678465977,-2.3285246742218653,0.07915447383367014,1.5895091719243595,0.6813711001118676
1694611682450583519,106,0,,-0.1656715970793601,-0.7828977675608746,0.09683449741822325,-2.32836428281152,0.08124915198133018,1.5901655532734031,0.6787146067050407
1694611682460610063,107,0,,-0.17018370856152382,-0.7827822667737727,0.09940613293466001,-2.328193611815796,0.08329440620915424,1.590844748046514,0.6760691651402536
1694611682470594310,108,0,,-0.17479833128948144,-0.7826590783226417,0.10201113950494138,-2.32799660089258,0.08531597829878039,1.5915755921455448,0.673578982279857
1694611682480333790,109,0,,-0.17947036180641113,-0.7825213395982548,0.1046028994535157,-2.327785947250259,0.08745844825355989,1.5923115983781,0.6710319902767663
1694611682491363267,110,0,,-0.18460414346276374,-0.7823663690479241,0.10748297414832482,-2.327524986500087,0.08986201406190573,1.5930955313317419,0.6680442518390617
1694611682501818071,111,0,,-0.18930719757865996,-0.7822171957573397,0.11012868538989748,-2.327252278412841,0.09201812372386906,1.5938223213475622,0.6653808800772162
1694611682512801622,112,0,,-0.19459667703633776,-0.7820658803575966,0.11305325191861543,-2.326921446817278,0.0944276398168111,1.594635885456436,0.6622920815796742
1694611682523820184,113,0,,-0.20001665956590461,-0.7819265234785618,0.11599714461678948,-2.3265492966098322,0.09685732645361914,1.5954952061137218,0.6592478614290379
1694611682534013335,114,0,,-0.20499864891592234,-0.7817959215930523,0.11868524902520763,-2.3261747227258525,0.09904516695000476,1.5962696443629043,0.6563976637651228
1694611682544807611,115,0,,-0.21045210022272218,-0.7816360700123139,0.12169862486711895,-2.3257222282403007,0.10148734337138333,1.5970936708998564,0.6533748633795369
1694611682555508765,116,0,,-0.21590480477346272,-0.7814820370867378,0.12478549317291689,-2.3252467986590837,0.10397324071296157,1.5979281291986467,0.6502922508438761
1694611682565706691,117,0,,-0.22095694851834063,-0.7813484935145844,0.12760790310129472,-2.324788557594861,0.10622418431693058,1.5987477062045927,0.6473764910655025
1694611682576351757,118,0,,-0.22661960227218578,-0.7812194599561736,0.13069338104794503,-2.324258138359994,0.10870658006484224,1.599624350777882,0.6441082582158669
1694611682586862729,119,0,,-0.23182839002181535,-0.7810889534949291,0.13350573088165746,-2.323752263072471,0.11098702872820648,1.6003937883135122,0.6411287511722136
1694611682596792563,120,0,,-0.23702481076362603,-0.7809728203346799,0.13631767869483805,-2.3232242434349986,0.11331154123556299,1.6011879562042164,0.6381357187408888
1694611682607757507,121,0,,-0.24277166236725975,-0.7808239509529219,0.1394059761878653,-2.3226292231979095,0.11595341530851452,1.6020959789891362,0.6348852134246987
1694611682618457368,122,0,,-0.24861471936731327,-0.7806997789981406,0.14250907558574924,-2.3220071470673576,0.11854237045015394,1.602978510026496,0.6316750014767694
1694611682629761651,123,0,,-0.254595813582879,-0.7805863589796109,0.14563636461225346,-2.321360822246573,0.12107427654322565,1.6038929539840532,0.6283477493593237
1694611682639708441,124,0,,-0.2600890717463703,-0.7804660983751833,0.14855128972439874,-2.3207761010251375,0.12337836240733609,1.6047298603011202,0.6253434432494297
1694611682650485749,125,0,,-0.2660309887426404,-0.7803201489720517,0.1518127065120885,-2.3201070380207844,0.12601032857634775,1.6056620059646634,0.6218619065092478
1694611682661758137,126,0,,-0.27204738303296633,-0.7801752830110827,0.1550900666379022,-2.3194044994046936,0.1287545362039178,1.606595323155451,0.6184094565229645
1694611682672648525,127,0,,-0.278173975604614,-0.7800421573999727,0.1583422630827099,-2.3186930442048057,0.13141106095081712,1.6075128405056054,0.6149994104270119
1694611682683582190,128,0,,-0.2844333959159384,-0.7798883125042533,0.1616197262964843,-2.317924001287491,0.13409867252581187,1.608445702972262,0.6116298370886142
1694611682693653449,129,0,,-0.2900886612976611,-0.7797463851781038,0.16460402845597416,-2.3171987569762353,0.136637116686913,1.609247443480125,0.6084311449995684
1694611682704430568,130,0,,-0.2962898765201299,-0.7795605663319427,0.1678949102596617,-2.316336921088323,0.1393666193603863,1.610085583696195,0.6048684742226613
1694611682715465094,131,0,,-0.30260565321139044,-0.7794120616852336,0.17118361039687838,-2.315451631637979,0.14204462527145004,1.6109419702494188,0.6012010880505856
1694611682726306653,132,0,,-0.30907020654818906,-0.7792638592582899,0.17453023474592827,-2.3145229686550963,0.14469488834239297,1.611834701788019,0.5975633204244376
1694611682736374539,133,0,,-0.31492115357615547,-0.7791188127362638,0.17760428173582957,-2.313651686482646,0.14721379032742582,1.6126320325365113,0.5944546766903278
1694611682746709539,134,0,,-0.3207328360867094,-0.7789617474017967,0.1807156004490049,-2.3127421960963654,0.14980084282532316,1.6134392206676857,0.5912939433446242
1694611682757301880,135,0,,-0.3271965446013426,-0.7787923975355034,0.18409549486827154,-2.311686289627023,0.15259102199230745,1.6143119674252866,0.5877047691177536
1694611682767585742,136,0,,-0.33321730721097914,-0.778658547502185,0.18715893936766032,-2.3107102410122597,0.15515598912913062,1.6151423423145401,0.5843605191188609
1694611682777784727,137,0,,-0.339287773937139,-0.7785079757865916,0.19020430520334955,-2.3096922714433217,0.15773172258486362,1.615978060890307,0.5810208230120651
1694611682788811073,138,0,,-0.34587179451056776,-0.7783244104233475,0.19354754971570906,-2.308569438086068,0.16058138986114226,1.6168622879874892,0.5772931565287955
1694611682799772682,139,0,,-0.35251398303663595,-0.7781680616485729,0.1969170374271527,-2.307433210940459,0.1634158965397737,1.617801860101835,0.5736980166972757
1694611682810320699,140,0,,-0.359291344539261,-0.7780143907419517,0.2002953915755624,-2.306277322231811,0.16627283537909496,1.618767203079349,0.5699852860852975
1694611682820370731,141,0,,-0.3655088804487141,-0.7778875784557996,0.20343487216915468,-2.3052241389511328,0.16892833448731745,1.6196178788353455,0.566562801080596
1694611682831667643,142,0,,-0.3722431344577893,-0.7777122158569854,0.2069229366855081,-2.3040574936023805,0.17184895584658152,1.6205178895071886,0.5627449866730823
1694611682842362786,143,0,,-0.37902592949435593,-0.7775343441892627,0.2104109496135702,-2.302834747656687,0.1748556729811165,1.621451430485212,0.5589793428695135
1694611682853393269,144,0,,-0.3859276717070219,-0.7773510590603077,0.21386601621444037,-2.301569388422367,0.17781542409799073,1.6223614964353914,0.5552913110972323
1694611682863510286,145,0,,-0.39224471591970356,-0.7771625680598118,0.21699202078835017,-2.30037543956939,0.18046226396423945,1.623203658039973,0.5519419575394189
1694611682873723992,146,0,,-0.3984925786501877,-0.7769621346195074,0.2201339603587481,-2.29912363617613,0.1831201607232887,1.6240823816260352,0.548585562198742
1694611682884743843,147,0,,-0.4053929518090738,-0.7767395410822788,0.22359524708398776,-2.2977159751748206,0.18607928324951478,1.6250571873422122,0.544757029696856
1694611682894705065,148,0,,-0.4117729519047233,-0.7765568674055249,0.2267444690622797,-2.2964420866060937,0.1888013492565359,1.6259743855232383,0.5412576769385353
1694611682904913145,149,0,,-0.41819665804876494,-0.7763705579994606,0.22992733756046943,-2.2951501559627623,0.19154201356222397,1.6268623801737603,0.5377702628243061
1694611682915712825,150,0,,-0.42517070957601055,-0.776139399241824,0.2334632066850564,-2.293736085913403,0.19467313183095822,1.6278579780108897,0.5340923086449391
1694611682926668806,151,0,,-0.4321725923634905,-0.7758934253137355,0.23695613501510435,-2.2923274395106863,0.1977662714981473,1.628810708155089,0.530284929357231
1694611682936629564,152,0,,-0.4386384196718455,-0.7757011934373965,0.2400845309179765,-2.2910408767694226,0.2004761568286194,1.6296328129273132,0.5268270263573627
1694611682947670679,153,0,,-0.4457928192681173,-0.7754344819732889,0.2434998729575954,-2.28960159007559,0.20345231739087477,1.630566796528004,0.5229029174940129
1694611682957706036,154,0,,-0.45220517877692806,-0.7751857316478972,0.24661472884949417,-2.28827730916461,0.2062740864414327,1.6314233196207353,0.5193762264162266
1694611682968535966,155,0,,-0.4593049831829474,-0.7749110743936046,0.25002261736218756,-2.2867701517909436,0.20939107600196125,1.6323422486778134,0.5157014527653287
1694611682978564576,156,0,,-0.46585399853896925,-0.7746599378133959,0.2531432536174051,-2.2853419516441593,0.2122233093812347,1.6332103206894966,0.5123715145251645
1694611682988295966,157,0,,-0.472370284444395,-0.7743832521630011,0.25630202868063146,-2.283879414383214,0.21513533030818593,1.6340852745236685,0.508964641124834
1694611682999684171,158,0,,-0.47945483340186906,-0.7740489051900833,0.25980902927070854,-2.2822798794248054,0.21827733264226915,1.6350670831107081,0.5051487161728098
1694611683009671480,159,0,,-0.48591173301668417,-0.7737616063599404,0.2629651592187437,-2.280832421151466,0.22108443613487933,1.6359638674237513,0.5016920793035284
1694611683020768125,160,0,,-0.49311834588277725,-0.7734327919414176,0.26639068950275935,-2.279246302970824,0.22414133543793832,1.636959835582547,0.4978984938331785
1694611683031688716,161,0,,-0.5002730415962742,-0.7730742281021531,0.26983410239781785,-2.2776668444007453,0.22734286576358007,1.6380343662423857,0.49425039489685363
1694611683041758955,162,0,,-0.5067384681667674,-0.7727218051920839,0.2729407990101292,-2.276209134164402,0.2302297393106814,1.6389709862465898,0.49083419654717747
1694611683052602302,163,0,,-0.5138733272980689,-0.772367149357107,0.27632682274297077,-2.274578650237506,0.233417765156484,1.6399474087049086,0.48703958371725775
1694611683062411803,164,0,,-0.520458189536059,-0.772029959949533,0.2794354574350026,-2.27303261772395,0.23630432665917273,1.6409086591942474,0.48362921498323436
1694611683072914040,165,0,,-0.5269300787847672,-0.7716591790363665,0.28258368030691955,-2.271447252759499,0.23922568839548058,1.641862006208621,0.48025722892576944
1694611683083514849,166,0,,-0.5340496038594194,-0.7712466561049248,0.28603564055204844,-2.269713922875165,0.24241571806842713,1.6429457000536054,0.47663311322699314
1694611683093616688,167,0,,-0.5405351341674897,-0.7708864264482302,0.28909256630032404,-2.2681818489019174,0.24535365442730908,1.6439589858396086,0.47337673340393704
1694611683103729962,168,0,,-0.5470877083123792,-0.7705170103908726,0.2921640725978411,-2.2666766150505726,0.2482906683808316,1.645013048436078,0.47011809368273333
1694611683113738511,169,0,,-0.5535349705542577,-0.7701083815331807,0.295218874297581,-2.2651615826040032,0.25125053906805106,1.6460574834105834,0.4667946359332726
1694611683124327438,170,0,,-0.5606112636295175,-0.7696217363946126,0.2985153670013302,-2.263477139874543,0.25458115128874803,1.6471479981437565,0.46311755874725613
1694611683134832099,171,0,,-0.5670812317333377,-0.7691919238851191,0.30151550800054094,-2.2619335388693242,0.25752114729141967,1.6481494900368947,0.45981598529408346
1694611683145665519,172,0,,-0.5742551210745717,-0.7687029679683682,0.3048397724725036,-2.260192232650604,0.2607276079422826,1.6492106638705653,0.4563275368386594
1694611683156417097,173,0,,-0.5813069800469323,-0.7681692491279252,0.3082221057273782,-2.258415529444383,0.2639515966720856,1.6503136557592213,0.4527790093275333
1694611683167452895,174,0,,-0.5883350147493877,-0.7676101344099799,0.31157709039769116,-2.2566341661217475,0.26725230712668596,1.6514321546574686,0.44924117084069487
1694611683177305196,175,0,,-0.5947553172351212,-0.7671261586868446,0.31459830376101394,-2.2550545750335336,0.2702555083565145,1.652461730456956,0.4459682908868311
1694611683190728521,176,0,,-0.601793944786833,-0.766560148012308,0.3179046638748963,-2.2533227244959333,0.27363950980332286,1.6536164958520667,0.44240312038576435
1694611683198626818,177,0,,-0.6081050557834349,-0.7660217246060759,0.32092473458230825,-2.2517501805924605,0.27665004892450273,1.6546864260304426,0.43928005566266315
1694611683208475636,178,0,,-0.6144093633333062,-0.765484918194394,0.32388543500897,-2.2501497147192806,0.27960695650374634,1.6557250314598844,0.4363404823710108
1694611683219411647,179,0,,-0.6213756585208973,-0.7648900454889404,0.327108659996551,-2.248381835861928,0.2828524916037179,1.6568676463137137,0.4329740733714327
1694611683230636754,180,0,,-0.6283379039904626,-0.7642664933594764,0.3303622936653831,-2.246567024403748,0.2861967107325684,1.6580974208705934,0.42964027120121523
1694611683240706527,181,0,,-0.6345749951007847,-0.7636645926797659,0.3333516359615239,-2.2448917883948765,0.28921485260307994,1.6591638499758097,0.42654530966629356
1694611683251345951,182,0,,-0.641423349771078,-0.7629809673406861,0.3366233781468061,-2.2430825236237317,0.29264446844063674,1.6603909218154054,0.4232243796483581
1694611683261680347,183,0,,-0.6476501382945953,-0.7623433676983199,0.3395292828929867,-2.241473675497012,0.2957306639760729,1.6615481572085244,0.42020117691338243
1694611683271931656,184,0,,-0.6538169068631332,-0.7616880775037419,0.34243440425880617,-2.2398937060135204,0.29868949112281307,1.6626944743146999,0.41731777799576303
1694611683282383594,185,0,,-0.6605413144996038,-0.7609255968199803,0.3456327071161433,-2.2381717872244935,0.3019246084668918,1.6639710038875117,0.4141188721654185
1694611683292689101,186,0,,-0.6666570544182985,-0.7602224198062031,0.3484835859082406,-2.236590993101887,0.30497297919314986,1.6651778502738133,0.4112159850092353
1694611683302728207,187,0,,-0.6727528724061109,-0.7595140855674568,0.351263954741954,-2.234997284669612,0.3080162604825475,1.666338972560932,0.4082847365689022
1694611683312621763,188,0,,-0.678873938099633,-0.7587827721023537,0.3540853764654039,-2.2333746083234947,0.31100460742112196,1.6675233964223817,0.4054454060044327
1694611683323592729,189,0,,-0.685479704454341,-0.7579244793651211,0.3572376656725261,-2.231553478053158,0.3143682764322342,1.6687470688685313,0.40235775853872763
1694611683333818946,190,0,,-0.6914620864142983,-0.7571277929252486,0.36008237006841265,-2.2299191331055104,0.31741834459172075,1.669841945565602,0.3995977207341849
1694611683344310844,191,0,,-0.6979944514723562,-0.7562580712236374,0.3631577051255463,-2.2281597302104474,0.320696742933959,1.6711129688694588,0.39669573456428586
1694611683355741360,192,0,,-0.7044841001335499,-0.7553819097333269,0.36623002675171,-2.2264583644763176,0.3239762503045507,1.6723758302609002,0.39371998104204997
1694611683366598281,193,0,,-0.7108456676071004,-0.7544979172287266,0.3692958953365644,-2.2247660938615335,0.3273324444216396,1.6736211787555089,0.3908607249069842
1694611683376637383,194,0,,-0.7166271148234019,-0.7536981560411485,0.37206241983014926,-2.2232082521000267,0.33039213238140475,1.6747878322728194,0.388180657551616
1694611683386471494,195,0,,-0.7223886522893487,-0.7528925786144983,0.3747776266568947,-2.221630048576899,0.3334193194220994,1.67594022869859,0.38554752821083876
1694611683397892927,196,0,,-0.7287165923516129,-0.7519761917996394,0.3777391329735709,-2.219824979800813,0.3366751890187358,1.6772867253165282,0.3827280750717698
1694611683408381888,197,0,,-0.7349031529189728,-0.7510291682425935,0.3807040087877737,-2.2180245887307954,0.3399189167178489,1.6786348516219811,0.3799877166741996
1694611683419381352,198,0,,-0.7410559022756401,-0.7500672372532523,0.3837143148789232,-2.2162646299831747,0.3431404427575134,1.6800018529439955,0.3773612333426648
1694611683430385248,199,0,,-0.7471168973978181,-0.7490875756676462,0.3866585156068525,-2.2145725677134056,0.34638503975315327,1.6813991627770344,0.37463736604035947
1694611683440599631,200,0,,-0.7525851511028115,-0.7481797187306364,0.3892913416763041,-2.2130642112420094,0.34934567813619943,1.682692003423691,0.3722417258723525
1694611683451198025,201,0,,-0.7585332254438989,-0.7471237547522828,0.3921859147160953,-2.2113945082245294,0.3526535151004824,1.6841004009810632,0.36964754437065017
1694611683462826670,202,0,,-0.7643689280680775,-0.7460495503186039,0.39507249748273426,-2.209705563409452,0.3558321413875863,1.68553027391743,0.3670446231119552
1694611683472400145,203,0,,-0.7696737783234335,-0.7450630897203937,0.3976518453425115,-2.2081600646145714,0.3586824172600734,1.686833142654517,0.36474805705182434
1694611683483242985,204,0,,-0.7754558770567902,-0.743932003950278,0.40042282461762474,-2.206428192146298,0.3617949748182326,1.6882729165532264,0.36228066236458784
1694611683493686301,205,0,,-0.7807034755613477,-0.7428702484797021,0.40290870098743986,-2.2048535844735206,0.36465512619157453,1.689505494920094,0.36020601880683895
1694611683504529926,206,0,,-0.7863365538456287,-0.7417062202217665,0.40566552723149907,-2.203156286068113,0.36775098738285894,1.69086748906159,0.35798720093156494
1694611683514280839,207,0,,-0.7913909058806622,-0.7406131490176504,0.4081478376252979,-2.2016617864681756,0.3706392401665018,1.6921106874012033,0.3558698106236475
1694611683525733841,208,0,,-0.7968996669142301,-0.739433875217561,0.41086354107640166,-2.2000546522010778,0.3737603114343257,1.6935073018817781,0.35358600022359626
1694611683535325721,209,0,,-0.8018107759546846,-0.7383472163321385,0.41330145142266805,-2.198591704668461,0.37644485805173694,1.694797321269088,0.35164704788324075
1694611683545865307,210,0,,-0.806663774947398,-0.7372172502028076,0.41571677813158403,-2.1971077260978134,0.37908093796710884,1.6960538791008335,0.3496446502827414
1694611683556735940,211,0,,-0.8118655846044284,-0.7359406952008073,0.4183498383006188,-2.195450077494555,0.3820196247706538,1.697547965723243,0.34752128864669657
1694611683567727862,212,0,,-0.8169811779389705,-0.734633489913363,0.4209748671804809,-2.193744183491167,0.385011366290045,1.6990033683560093,0.34550670787267124
1694611683577763375,213,0,,-0.821597300466338,-0.7334249268101803,0.423317130493865,-2.192159618723326,0.3876340533082251,1.7003624605153824,0.3436469865754251
1694611683587496832,214,0,,-0.8261454943693272,-0.7321977433726953,0.4256325382343063,-2.190631841839857,0.39022780392676176,1.701752353564502,0.34184780151133
1694611683598215951,215,0,,-0.8310984183408937,-0.7308241657157122,0.4281020271167566,-2.188995387012669,0.39306191976076826,1.7032816096869077,0.3400430427533257
1694611683608735655,216,0,,-0.8355095457379109,-0.7295547871694766,0.4303481437515792,-2.1875392986566475,0.3956009702905528,1.7047164166814732,0.33840001985789336
1694611683618624748,217,0,,-0.8398102004014881,-0.7282904829479192,0.43255436212572057,-2.186095172562861,0.3980665480892027,1.706115913201233,0.336730449080388
1694611683628685097,218,0,,-0.8440969118949244,-0.7270125869788787,0.434779925040169,-2.1846353905102167,0.4004860871850056,1.707501953207038,0.3350895084607511
1694611683639864450,219,0,,-0.8486971869309811,-0.7255659131447926,0.4371778371073383,-2.1830260090488998,0.403191918729666,1.708941780828068,0.3334403487330068
1694611683650560627,220,0,,-0.8532007742422983,-0.7240768158335879,0.43953381634594585,-2.1813909129453277,0.40581988261952817,1.7103905567553135,0.3317728590042213
1694611683660637032,221,0,,-0.8572123411062427,-0.7226707702349533,0.4416410591341467,-2.1798614153602145,0.40817412263489805,1.711740300328952,0.33030275601755
1694611683671655039,222,0,,-0.861522318440169,-0.721091768881451,0.44393032207927646,-2.1781912670474366,0.4107646033461724,1.7132285104408271,0.3287561386892866
1694611683681525695,223,0,,-0.865296853766448,-0.7196398358394726,0.4459622633241248,-2.1766976711589483,0.4130238552380976,1.714604579885629,0.32746803236485955
1694611683692619308,224,0,,-0.8694091898532729,-0.7180157227560089,0.4481640304875199,-2.175081072776033,0.4154320346433617,1.716117026790011,0.3260600607791398
1694611683702781727,225,0,,-0.8730879076334502,-0.7165282220732584,0.4501194101277466,-2.1736470994117374,0.41757476470406535,1.717570206328554,0.32473998647284064
1694611683713819168,226,0,,-0.8770421850886233,-0.7148937421420096,0.4522131560535233,-2.172066793528705,0.41983444748198906,1.7191409351753117,0.3233897183937461
1694611683723667276,227,0,,-0.880555885488741,-0.7133989377051277,0.45406272346334947,-2.1706200808960734,0.42189229177700105,1.7205505325104014,0.3222534424285757
1694611683734748285,228,0,,-0.8843667564574859,-0.7117202833536287,0.45610867692486773,-2.168989711470131,0.4241371147831181,1.7221296320455475,0.32114648033068327
1694611683745796875,229,0,,-0.8880273744367828,-0.7100038616562444,0.4581283006545251,-2.1672959233659097,0.42632833156354627,1.7237620929074444,0.3200212139045172
1694611683756592947,230,0,,-0.8915620706022171,-0.7082413511495876,0.4601075820599257,-2.1656035217122165,0.4284695281257099,1.725397412428388,0.31888300291926314
1694611683766364192,231,0,,-0.8946930415507969,-0.7065943202291506,0.4619075871022135,-2.1641025594287218,0.4304035818959052,1.7269045134990288,0.31789856380500375
1694611683777636768,232,0,,-0.8980669797370026,-0.7047549858768681,0.46381933184482316,-2.162497744275543,0.4323894797504969,1.728433616863059,0.31685965415153017
1694611683787687264,233,0,,-0.9010407921067446,-0.7030605498362198,0.4655187817105576,-2.1610696118976302,0.43413277041878906,1.7298481864588209,0.3159861993155515
1694611683798837108,234,0,,-0.9042181328185349,-0.7012042902355805,0.4673356618342809,-2.15950143020304,0.4360114965476855,1.7313976549799646,0.3151368275501031
1694611683808553378,235,0,,-0.9070160787859592,-0.6994836534414295,0.4689762254278379,-2.1580874675793913,0.4376353606111295,1.7327882256349179,0.3144183657368842
1694611683819635343,236,0,,-0.9100236479306194,-0.6975416225386144,0.4707446911383011,-2.156525446809602,0.4394065451895363,1.7343379745508578,0.31361596984252305
1694611683830288897,237,0,,-0.9129441511269171,-0.6955504300504586,0.47244690632513525,-2.1549222186820125,0.441169857012143,1.735900798540135,0.31277815434671746
1694611683840401876,238,0,,-0.9154972974178529,-0.6937044733662744,0.47397109924042824,-2.1534454694546414,0.4427102487152894,1.7373951182534353,0.31208215241788695
1694611683850951712,239,0,,-0.9179576565417584,-0.691826862937728,0.4754577427865552,-2.151950127554908,0.4441647745951158,1.738871517441398,0.3114325245421288
1694611683861813556,240,0,,-0.9206089085426142,-0.6897403726090184,0.47704912332069027,-2.15034825269813,0.44575470019282337,1.7405344640006586,0.31079104576764516
1694611683872309536,241,0,,-0.9231973054535905,-0.6876884368609425,0.47859735789260655,-2.148764966691184,0.4473198068386715,1.7422137336455326,0.31016908701331003
1694611683883355642,242,0,,-0.9256737512115903,-0.6856226208982615,0.48008171760226875,-2.147205433462978,0.4488455380322426,1.7439686670160404,0.3096162907069906
1694611683894105923,243,0,,-0.9278236135351239,-0.683703233351487,0.4814221886663642,-2.1457741119511566,0.4501562067634821,1.7455108304178288,0.30919214949115864
1694611683904689215,244,0,,-0.9300967272562403,-0.6815288275998769,0.4828922469280993,-2.1441455445601294,0.451433748803008,1.7471399372847427,0.3087402924650368
1694611683914831812,245,0,,-0.9320626659031737,-0.679516645214237,0.48413605109275104,-2.1426375758950473,0.45261215337303196,1.7485377577494445,0.30834441852725963
1694611683925351488,246,0,,-0.9341745780962891,-0.6772722940422193,0.4855066708578473,-2.1409688094739687,0.45382424950372735,1.7500916649342655,0.307952784136914
1694611683936679969,247,0,,-0.9362486227032631,-0.6750318240855502,0.48684785972017974,-2.1393135772285277,0.45501827259838623,1.751660209530338,0.30758046263199323
1694611683946447097,248,0,,-0.9380470785035078,-0.6729898717581072,0.48802398991456813,-2.137867762168917,0.4560420922985083,1.7531423974664642,0.3072596435943603
1694611683957589784,249,0,,-0.9399343010040521,-0.670703527543471,0.4892898525401342,-2.136305375299325,0.4571040995666098,1.754754477510061,0.3069461848345311
1694611683967622904,250,0,,-0.9415639664000321,-0.6686008574297349,0.4904195718962878,-2.134894605060918,0.45805058606545646,1.7562643475664257,0.3066932544716079
1694611683978446558,251,0,,-0.9432631329568599,-0.6662526557643929,0.4916551872875768,-2.1333420965860403,0.4591096693589352,1.7579239211088376,0.306456896372095
1694611683989916256,252,0,,-0.9448687409645554,-0.663870565352617,0.49280612875226937,-2.131783641808042,0.4601316882420479,1.7595832044339874,0.3062618591192882
1694611684000273001,253,0,,-0.9464427141774222,-0.6615010330827601,0.4939257226051591,-2.130217289762657,0.46103892054240153,1.7612511173293128,0.3060853208510804
1694611684010528338,254,0,,-0.9478402355566892,-0.6593328876930058,0.4949213937370558,-2.128751833531911,0.4618713106290807,1.7628097932030393,0.3059545080379203
1694611684021395312,255,0,,-0.9492944013973048,-0.6569038717684931,0.4959900031458498,-2.1271024291394247,0.46268487679903075,1.764588608629065,0.30582833320602815
1694611684033182572,256,0,,-0.9506234213023044,-0.6544388288502994,0.4969803769877544,-2.125470717830879,0.46341317595468196,1.766359047638603,0.30571646730942237
1694611684043783583,257,0,,-0.9518791710328854,-0.6519459786247418,0.49792987287194784,-2.1238699131072067,0.4641638120623411,1.7680002583104788,0.305621994476789
1694611684054585257,258,0,,-0.9530771566259537,-0.649431937493061,0.49882567010486767,-2.1222963522203515,0.464926403266329,1.7696036151525287,0.3055575303732867
1694611684064287149,259,0,,-0.9541063774520371,-0.647171159454303,0.49965079993181427,-2.120892780822748,0.46554722143254046,1.771050588073702,0.30554220209614813
1694611684074795545,260,0,,-0.9551093961696235,-0.6448984071060353,0.5004349766481456,-2.119488847686545,0.4661166599167645,1.7725252703154086,0.3055457258943298
1694611684085057660,261,0,,-0.9560444581559547,-0.6425820358669636,0.5012041920236404,-2.118066021069767,0.46664842099556425,1.7739991959936654,0.3055463012937015
1694611684095363471,262,0,,-0.9570028888578294,-0.640022302838983,0.5020258218063423,-2.116480209006528,0.4672357903650858,1.7756850312818757,0.3055443016833984
1694611684105475893,263,0,,-0.9578199085381114,-0.637667736343381,0.5027684551145174,-2.114991419811082,0.4677701347768884,1.777203275827046,0.3055412440256962
1694611684115340748,264,0,,-0.9585884058887827,-0.6353092729146166,0.5034881874882536,-2.113518212471581,0.4682875374839438,1.7787733021329102,0.30554329717549367
1694611684125667605,265,0,,-0.9593320484188474,-0.6329692810002796,0.5041916648922634,-2.112107365718029,0.46877698045666016,1.7803482029455875,0.3055490362357288
1694611684136696250,266,0,,-0.9600859660037063,-0.6303865887984811,0.504920614910997,-2.1105883380952166,0.46923667061633445,1.7820728415170737,0.30555067279378506
1694611684146828422,267,0,,-0.9607091470094123,-0.6279801010612688,0.5055561453734937,-2.109219666260195,0.4696235903364334,1.783684566159852,0.3055766241827364
1694611684157587537,268,0,,-0.9613264731691742,-0.6253074843308194,0.5062234087594415,-2.1077180939081113,0.4700459836208153,1.7854549549982197,0.3056357238890377
1694611684167519749,269,0,,-0.9618669615515923,-0.6228748404229667,0.506807917045316,-2.1063415894671884,0.47041836397749953,1.7869629853838782,0.3056972494363489
1694611684178432610,270,0,,-0.9624466646745585,-0.6201948771715293,0.5074376224205497,-2.104837546827382,0.4708323624181783,1.7885808232759661,0.3058046053090135
1694611684189405366,271,0,,-0.962971424118004,-0.6174933034290011,0.5080256678474085,-2.1033205998657096,0.47123895063295473,1.790208786031716,0.30591903670382775
1694611684200849876,272,0,,-0.9634411566032092,-0.6147491837373279,0.5086003735963385,-2.101787561641205,0.4716045002118822,1.7918346226154753,0.30601756050355355
1694611684210429106,273,0,,-0.9637949017224622,-0.6122580351464794,0.5090924678010712,-2.100400355826286,0.4719115823103291,1.7933341007247365,0.3061199705399761
1694611684221903298,274,0,,-0.964135667064899,-0.6095300730344971,0.5095720872526265,-2.098895433769253,0.47225616022331207,1.7950112679709525,0.30623473204951007
1694611684232777534,275,0,,-0.9644701179015192,-0.606864661499434,0.5100227871567828,-2.0974276718596547,0.4725820405283352,1.7967621401304652,0.3063463911598537
1694611684243643418,276,0,,-0.9647631330840352,-0.604172680855485,0.5104701992751285,-2.095958045095439,0.4728861970789518,1.7985422936956965,0.3064656473041914
1694611684254809971,277,0,,-0.9649936938415282,-0.6014244382883561,0.5109103467036888,-2.0944969909660673,0.47319774050708846,1.8002995413938028,0.3065937053984564
1694611684264472878,278,0,,-0.9651638630072721,-0.5989341592132124,0.5112739651848109,-2.093165916731413,0.47348891290666845,1.8018961713067914,0.3066984892146715
1694611684275706030,279,0,,-0.9653323277378144,-0.5961841330014589,0.5116602113960538,-2.0916867814168714,0.4737990075918497,1.8037153670432933,0.30681250323645276
1694611684286367680,280,0,,-0.9654928376390642,-0.5934484623742733,0.5120284896871592,-2.090192075258402,0.47410918506976235,1.8055208707813526,0.30693515102274643
1694611684297583666,281,0,,-0.9656315597617358,-0.5906829547079313,0.5123848600130896,-2.0886826482769454,0.47441438924266466,1.8071927976917694,0.30705006505928195
1694611684308543982,282,0,,-0.9657348574280286,-0.5879046975996327,0.5127514087336178,-2.0871869567136905,0.4747145340717993,1.8088813622441822,0.30715833168690215
1694611684318171743,283,0,,-0.9658079352374924,-0.5853573395780776,0.5130701031174123,-2.0858857222186913,0.474972807740261,1.8104191135992351,0.3072605185620655
1694611684328873575,284,0,,-0.9658515273792672,-0.5828669592933979,0.5133376549714418,-2.0846324365258035,0.4752425339864259,1.8119870677557557,0.30735403687655516
1694611684338883820,285,0,,-0.9658646791578849,-0.5804219035933347,0.5135898773653288,-2.0833803997548244,0.4754973169196873,1.813561366234232,0.30743697101155354
1694611684349737012,286,0,,-0.965851079373301,-0.5776773873195674,0.5138569497912283,-2.082005390208825,0.47578957367873526,1.8153385034579976,0.3075184369321309
1694611684359389239,287,0,,-0.9658131249906755,-0.5751161261678703,0.5141086376815424,-2.080753943022183,0.47607990443696047,1.8169078525253597,0.30758989239732387
1694611684369687536,288,0,,-0.9657568491644762,-0.5725525173647528,0.5143149243101593,-2.079508078459524,0.47636096886545815,1.8185368547174352,0.3076306171625869
1694611684379395238,289,0,,-0.9656968186838691,-0.570001208329671,0.5145043295087977,-2.078253240519041,0.47665003263592426,1.8201856516321953,0.3076613441123721
1694611684389585789,290,0,,-0.9656204293978452,-0.5674657128191851,0.5146694874688402,-2.0770028698642675,0.4769548880645707,1.8218831619496882,0.30770713380208375
1694611684400673762,291,0,,-0.9655346670328404,-0.5646759567785337,0.5148432079600037,-2.0755958761505093,0.4773078453105724,1.8237585530477323,0.3077457027328627
1694611684410251777,292,0,,-0.9654447544955457,-0.5620788519698132,0.5149874974792085,-2.074294362188166,0.4776273573762237,1.8254423125672448,0.3077645853847963
1694611684421587011,293,0,,-0.9653149534782756,-0.5592732516660562,0.5151217188652835,-2.0728863735747374,0.4780061770584462,1.8271726340954386,0.307774008470945
1694611684431540904,294,0,,-0.9652012196245251,-0.5567684509423495,0.5152321827569069,-2.071623975197665,0.47837279622483864,1.8287278840926116,0.30776945118413807
1694611684441361786,295,0,,-0.9650851381517418,-0.5543059817355771,0.5153366965720639,-2.0703818906953932,0.4787189185308075,1.830318296002237,0.3077752407575444
1694611684451736287,296,0,,-0.9649582477532607,-0.5518237415280312,0.5154326026908903,-2.0691550198786435,0.4790740380056423,1.831946018429608,0.3077760633352889
1694611684462310824,297,0,,-0.9647620688009312,-0.5490576883729357,0.515525070828756,-2.0678027790650315,0.47946988892372167,1.8336598780759648,0.30776612077339893
1694611684472699944,298,0,,-0.9645645275026881,-0.5465294681119776,0.5155988882862451,-2.066562333198528,0.47984812721897346,1.8353275031626894,0.3077629690479466
1694611684483596494,299,0,,-0.9643371315411037,-0.5437633129329388,0.5156402074895933,-2.065188722265589,0.48028182071232345,1.8371363535896523,0.3077678702056043
1694611684494295301,300,0,,-0.9640969825416987,-0.5410201895709592,0.5156434996074162,-2.0637951250223305,0.4807394520973519,1.8389535697970258,0.30775249373179386
1694611684505256306,301,0,,-0.9638443462813756,-0.5382568146268559,0.5156443842479317,-2.062374320301152,0.4812006778079243,1.8408289032988725,0.3077316718860374
1694611684515530854,302,0,,-0.9635874620002346,-0.5357314524100107,0.515646561962966,-2.061095703589085,0.48160938146957155,1.8425994394044982,0.30767832384758576
1694611684525911285,303,0,,-0.9633119842491412,-0.5332069756750228,0.5156465925011214,-2.059868626833244,0.4820400778199181,1.8443770971020517,0.3075798656078636
1694611684535633050,304,0,,-0.9630492891138893,-0.5307131359880682,0.5156229239438175,-2.0586365399961917,0.4824661488117443,1.8460267769647094,0.30748235323169504
1694611684546571018,305,0,,-0.9627491969280306,-0.5280430134665515,0.5156114969359491,-2.0572934263456992,0.4829518144165596,1.8477974546833658,0.3073768030920988
1694611684557390399,306,0,,-0.9624283693626203,-0.5253404937642141,0.5155906602824052,-2.0559594171539874,0.48348172546901697,1.849521250408827,0.3072707561592542
1694611684567339492,307,0,,-0.9621040548676145,-0.52281942286528,0.5155503113598899,-2.054740012429987,0.4839869772505669,1.8510867627344894,0.30715679658880296
1694611684577767942,308,0,,-0.9617567615675606,-0.5202996800931472,0.5154873661168521,-2.0535422447714433,0.4845220491400539,1.8526823488798863,0.30704399287128137
1694611684588551074,309,0,,-0.9613670653531651,-0.5175502156176952,0.5153939460749131,-2.0522158060996265,0.48509601610362246,1.8545057234818405,0.30690485111965543
1694611684599761295,310,0,,-0.9609882680995606,-0.5148318783223359,0.5152923524588723,-2.050864596387697,0.4856606707341575,1.8563155277714956,0.3067481039621391
1694611684609505239,311,0,,-0.9606380331537403,-0.5123478259718761,0.5151863095469825,-2.0496187100898373,0.48620385107363207,1.8580061472743343,0.3066093030969733
1694611684620486642,312,0,,-0.9602590646541932,-0.5095899000381725,0.5150730637210336,-2.048221373896026,0.4868115444891662,1.8598408157326027,0.30642639152555257
1694611684631790157,313,0,,-0.959842733619318,-0.5068691295071358,0.5149409674428367,-2.0468302522109,0.48747497579443466,1.8617703659018283,0.30623366012448616
1694611684641596138,314,0,,-0.9594416214745914,-0.5044303210803577,0.5147987832096879,-2.0455695409904973,0.48806461228056264,1.8635079337430427,0.3060491860896694
1694611684652375653,315,0,,-0.9590033775870414,-0.5018182258149544,0.5146227058615668,-2.044177562741179,0.48871921142475183,1.8653702870673432,0.3058427719351576
1694611684663475253,316,0,,-0.9585306524899209,-0.4991802583514166,0.5144509833263612,-2.0427948086219585,0.4893549446990985,1.867149153924288,0.30561776862027484
1694611684674331034,317,0,,-0.9580333513999317,-0.4965035725810739,0.5142560354052191,-2.0414025678646346,0.4900097370758808,1.868874496302815,0.30537840231341307
1694611684685525839,318,0,,-0.9575286564091131,-0.49382255590855406,0.5140342796961942,-2.0400060585943267,0.49070826993386785,1.8705707091207362,0.3051317252964969
1694611684695801015,319,0,,-0.9570710190611752,-0.4914253881615833,0.5138019112602359,-2.0387345622790494,0.49137904919692643,1.8721393060548321,0.3048959819770218
1694611684706632840,320,0,,-0.9565744327633161,-0.4888037931312722,0.5135369856791601,-2.037303831461416,0.4920973599488282,1.8739304982073648,0.30460509154838017
1694611684717347927,321,0,,-0.9560753159361055,-0.486175250796538,0.5132791306600397,-2.0358614044462016,0.49278840726015916,1.8757379322849121,0.3042941998394586
1694611684727853734,322,0,,-0.9556091739557367,-0.4837892716931001,0.5130461517147359,-2.0345481468007063,0.49345523242538253,1.8773988042926997,0.30400990796402044
1694611684738618337,323,0,,-0.9550868199068105,-0.4811654344598827,0.5127629322673714,-2.03313383149878,0.4942369060870746,1.8792383430951094,0.3036903272894063
1694611684749472323,324,0,,-0.954521371944012,-0.4785435340637814,0.5124457112855536,-2.031735336880895,0.49501737718245403,1.8811269697522657,0.30336124044750157
1694611684759562164,325,0,,-0.9540185550276155,-0.47622667955496983,0.5121482814566906,-2.030462724590238,0.49570450707983205,1.8828157379992438,0.3030695634080648
1694611684769388387,326,0,,-0.9535037813537419,-0.4738958831441212,0.5118383268099501,-2.0291938841952413,0.49638205319008505,1.8844695337293302,0.3027774046552832
1694611684779375468,327,0,,-0.9529723186405434,-0.47150903577962033,0.5115120368185705,-2.027907459065149,0.49709595591049704,1.886018753264852,0.3024926109784206
1694611684790579063,328,0,,-0.9523794012944244,-0.4688797122648559,0.5111423557315278,-2.026506957580291,0.4979365876632714,1.8876928852910784,0.30214907116192224
1694611684800406434,329,0,,-0.9518476668907028,-0.46649604294141195,0.5107895749960496,-2.0252030545973314,0.49870489656312195,1.8892131507726369,0.3018374200209833
1694611684811526499,330,0,,-0.9512696561832856,-0.4639088702428661,0.5103845176227357,-2.023763077800992,0.4995235759488556,1.8909219646114448,0.3014927954371299
1694611684821887849,331,0,,-0.9507621574818491,-0.4615590994403546,0.5100087734441268,-2.0224355777771663,0.5002594022192889,1.8924275018124368,0.30117767392016104
1694611684832548372,332,0,,-0.9501864563931147,-0.4590042624245557,0.5095875006620124,-2.020963956986817,0.5011371276464529,1.8941758486192297,0.30080362485863665
1694611684842387572,333,0,,-0.9496316303266127,-0.45665883131209534,0.5092040048816171,-2.0196241404085096,0.5019444697464955,1.8957500117280792,0.3004426740022233
1694611684853285884,334,0,,-0.9490085312444687,-0.4541089611228599,0.5087783539307517,-2.0181610759000694,0.5027899955758792,1.8975093120942326,0.3000800008252377
1694611684863546660,335,0,,-0.9484544943396354,-0.45183383529461607,0.5083819628262664,-2.016837194145342,0.5035902659546854,1.8991267638986022,0.2997289524642593
1694611684874978696,336,0,,-0.9477963308061015,-0.44938642648814414,0.5079421416325491,-2.0153756081423557,0.5045135916917397,1.9009193335968693,0.2993536039338335
1694611684886624490,337,0,,-0.9471417725773225,-0.44690580456978685,0.5075017207290028,-2.013874896040186,0.5053961279295952,1.9026504365215975,0.29898365634347407
1694611684896602127,338,0,,-0.9464664384053467,-0.4444042882508631,0.5070252730167185,-2.0123473657040813,0.5062781682624272,1.904317963064838,0.2985889941088785
1694611684907333742,339,0,,-0.945784340466666,-0.441880397375735,0.5065467522962488,-2.0107744482812095,0.5072097503047996,1.9058837433196094,0.2982170322429201
1694611684918560690,340,0,,-0.9450933521384025,-0.4393908644410123,0.5060514425341085,-2.009222760132145,0.5081434378624726,1.9074245587334542,0.29783832973808755
1694611684928699817,341,0,,-0.9444294247239101,-0.43715055719586876,0.505607344451804,-2.007857163379232,0.508934100151865,1.9088497909993958,0.2974890569658426
1694611684939325944,342,0,,-0.9437231123208522,-0.4346920317809041,0.5051205560891174,-2.0063921811337337,0.5097886706169779,1.910448489511639,0.2971118835005934
1694611684950374444,343,0,,-0.9429999645197966,-0.43222327332125243,0.5046556145651756,-2.0049329320659046,0.5106869087875253,1.9119873717547315,0.2967530723026169
1694611684960565419,344,0,,-0.9423593013998698,-0.43000254306218016,0.5042555953846563,-2.0035894251417186,0.511532289095959,1.9134541781883407,0.29645098008962245
1694611684970762844,345,0,,-0.9416935809652376,-0.42777966839878,0.503853435767888,-2.00223505476865,0.512334909986399,1.9148830224586593,0.2961267288815288
1694611684980465852,346,0,,-0.9410204635160966,-0.42557955203857856,0.5034432970778955,-2.000866102289425,0.5131330558329107,1.9162920233782752,0.2958270986747537
1694611684991684049,347,0,,-0.9402734165518214,-0.4231940006783664,0.5029969428666882,-1.99935822125901,0.5140510275183643,1.917848021862462,0.29549347427289097
1694611685001238706,348,0,,-0.9395803181215505,-0.4209906689898269,0.502582548222344,-1.9979622438238631,0.5148487246031501,1.9192768813852894,0.2951939641220555
1694611685011423886,349,0,,-0.9388959545450506,-0.41876097462472983,0.5021681496985684,-1.9965531565613401,0.515619208972313,1.9207581805308622,0.2948883892114928
1694611685021815682,350,0,,-0.9382296193023786,-0.41652507655031434,0.5017657564351256,-1.995145643795154,0.5164082179903866,1.922209728532156,0.29458450649404416
1694611685032281127,351,0,,-0.9375233325492276,-0.41408731971420476,0.501300769368967,-1.9936025600798941,0.5173296469479096,1.9237453835190257,0.2942507906865884
1694611685042634762,352,0,,-0.9368826931690496,-0.4119336119666536,0.5008632952457442,-1.9922251958343689,0.5181881479907524,1.9250359661936347,0.2939334694056487
1694611685052393106,353,0,,-0.9362433251916733,-0.4097773121558546,0.5004431991658811,-1.990868732500097,0.5190118726063395,1.9263381075030688,0.29363774697118583
1694611685063556089,354,0,,-0.935539130121663,-0.40740348898456386,0.5000217868416775,-1.989356418160746,0.5198621438742854,1.9277152626166887,0.29330987206468034
1694611685073406691,355,0,,-0.9348780798793712,-0.4052071509663127,0.49962060143193,-1.9879798490439535,0.5206653993607222,1.9289729194482672,0.2930334157171997
1694611685084407292,356,0,,-0.9341527576869687,-0.4028265123636138,0.4992147423349365,-1.986447148152282,0.5215451180613587,1.930355672557426,0.2927315791735239
1694611685094275958,357,0,,-0.9335006318938966,-0.4007123351546033,0.49881609753580547,-1.9850043653628413,0.5222907490606158,1.9315734854064903,0.2924608902546068
1694611685104300640,358,0,,-0.9328371943370828,-0.3986174794002061,0.498439889281209,-1.9835748214287088,0.5230496025449274,1.932865521548187,0.2922047433403282
1694611685114928342,359,0,,-0.9321922011897881,-0.3965252974525167,0.49806774931730025,-1.982146951331592,0.523880863609799,1.9341275384398522,0.29194020909050267
1694611685125651573,360,0,,-0.9314713384235941,-0.3942087003076435,0.4976858804770602,-1.9806156398461034,0.5247486169677087,1.935528144140037,0.2916813329493186
1694611685135678187,361,0,,-0.9308219359486365,-0.39206924657700293,0.4973486225334822,-1.9792419608527072,0.525546956123673,1.9367828071842932,0.2914249448978364
1694611685146726790,362,0,,-0.9301415431203233,-0.38971578035120574,0.4969760784173383,-1.9777364518669545,0.5264242441763124,1.9381413303722095,0.29116994536984064
1694611685156570393,363,0,,-0.9295519088006001,-0.3875837094905387,0.49668160922408333,-1.9763862229622995,0.5271895499028785,1.939394835862214,0.29092835663200933
1694611685167405421,364,0,,-0.9289162014505193,-0.3852853251218314,0.49637563553134106,-1.974911858572516,0.5279982001653432,1.9407635564727648,0.29067815566232574
1694611685177450643,365,0,,-0.9283378744174858,-0.3831623700355959,0.49612637458766495,-1.9735531153637196,0.5286962893014845,1.9419712719314708,0.29046484715814147
1694611685188568083,366,0,,-0.9277279768539771,-0.380814502319378,0.4958955362701671,-1.9720235289725998,0.5294304266636858,1.9432478362223011,0.2902335700740632
1694611685198468508,367,0,,-0.9271867201223147,-0.37868139773872983,0.4957043956324394,-1.9706200137889587,0.5301402434473396,1.9443257499662923,0.29003660223612704
1694611685208652702,368,0,,-0.9266445711055942,-0.37656689992512005,0.49552799826771027,-1.9692291053799578,0.5308556764293797,1.9454312008958603,0.289846656776175
1694611685219466937,369,0,,-0.9260773005351972,-0.3742897782119213,0.49535985617751915,-1.967708853010749,0.5316030168713277,1.9466317361983752,0.2896351906844968
1694611685229276347,370,0,,-0.9255906284947518,-0.37226732529188067,0.4952205120657953,-1.966361009645272,0.5322580776072622,1.9477299624974294,0.2894403391252894
1694611685239372702,371,0,,-0.925124817739696,-0.37025223521047823,0.49511608458641004,-1.9650401954550367,0.5329332053291572,1.9488272348282507,0.2892748801938691
1694611685250572373,372,0,,-0.9246438096989867,-0.3680192858130862,0.49500908181114667,-1.963574354785705,0.5336994503192112,1.9500002302701729,0.28907578052090743
1694611685261537347,373,0,,-0.9241821542843695,-0.36573583399627324,0.494924350243375,-1.9621025055357655,0.5344101486274355,1.9511340409190794,0.288878415170202
1694611685271468952,374,0,,-0.9238034478286976,-0.3636485180110652,0.4948755743993649,-1.9607647875667218,0.5350413037808206,1.9522294782405,0.2887166485127029
1694611685281560492,375,0,,-0.9234467321727157,-0.36156105228948465,0.4948754907571621,-1.9594207059855715,0.5356532037787826,1.953302901618615,0.28853726268886387
1694611685292302164,376,0,,-0.9230971191478576,-0.35928865963955153,0.4948849876575894,-1.9579200356302162,0.5363615368290159,1.9544469573283096,0.28834967293706393
1694611685302510934,377,0,,-0.9228039729081556,-0.35722335746041123,0.4949008151623874,-1.9566061141815225,0.5370100796471429,1.9554999195684837,0.28818035476252896
1694611685312873536,378,0,,-0.9225368507385839,-0.35516910783250416,0.4949644603731862,-1.9553507667178516,0.5376602728947774,1.9565511793187442,0.28800815948208164
1694611685323621373,379,0,,-0.9222534396467429,-0.3528880620412277,0.4950609981725717,-1.9539833474831072,0.538353994656986,1.9577264924655444,0.28782758348022447
1694611685333624821,380,0,,-0.9220171003083046,-0.3508453194052851,0.4951603360537965,-1.9527491644040806,0.5389721220934905,1.9588063354981817,0.2876541915216986
1694611685344576129,381,0,,-0.9217923089480933,-0.3486292153502907,0.4952973300114918,-1.9513985705188825,0.5396494407062273,1.960004333213875,0.2874759830930749
1694611685355632533,382,0,,-0.9216196305787709,-0.34646118847071317,0.49546800988181705,-1.9500526462644645,0.5403399033825924,1.9611415051327472,0.2872985932293085
1694611685366341616,383,0,,-0.9214875895733988,-0.3442717653811971,0.49567851587618145,-1.9486883568408935,0.540990429905449,1.9622661464058162,0.2871144314511445
1694611685376603461,384,0,,-0.9213910947715678,-0.3422499535561989,0.4958838541225052,-1.9474596244429714,0.5415451603459432,1.9632287417213896,0.2869593228256412
1694611685386529583,385,0,,-0.9213120954037075,-0.3402050371121384,0.49611199648825893,-1.9462296126569014,0.542110223969783,1.964170427265153,0.28679822049841314
1694611685397969606,386,0,,-0.9212765801442204,-0.3379300020018398,0.49640022454537613,-1.944895893380258,0.5427513322270894,1.9652722862829464,0.28661694575837043
1694611685408595030,387,0,,-0.9212952931743775,-0.3356504722172315,0.496734486474288,-1.9435802592686964,0.5434236583695351,1.9663170800153231,0.2864369331938495
1694611685418252204,388,0,,-0.9213560503234508,-0.333637312072516,0.49708901011146367,-1.942421913230128,0.5439918195286875,1.9672674645230217,0.28627682947789956
1694611685429567343,389,0,,-0.9214560369866689,-0.33143297900043306,0.4975170747834126,-1.9411778131623785,0.5445995971660502,1.968348437633219,0.28609080146159643
1694611685439607043,390,0,,-0.9215551926902359,-0.3294194861804315,0.4979370026695649,-1.9400674428445848,0.5451598775276717,1.9693542760159775,0.28592147105601495
1694611685449890486,391,0,,-0.9216674854718803,-0.32740478571617954,0.4983828208559234,-1.9389876120969793,0.5457270143721037,1.9702943265998614,0.285750082139532
1694611685460636389,392,0,,-0.9218102856687208,-0.32519198167867247,0.4989247028384434,-1.9378216304659244,0.5463864356150151,1.9713585798939341,0.2855448822743565
1694611685470666209,393,0,,-0.9219751626763635,-0.32319324418188805,0.4994521810505817,-1.936741334431972,0.5469734393479824,1.9723361025587172,0.28536238304356304
